time_from_launch[s],elapsed_time[s],launch_clear?,combusting?,para_opened?,air_density[kg/m3],gravity[m/s2],pressure[Pa],temperature[C],wind_x[m/s],wind_y[m/s],wind_z[m/s],mass[kg],Cg_from_nose[m],inertia moment pitch & yaw[kg*m2],inertia moment roll[kg*m2],attack angle[rad],altitude[m],velocity[m/s],airspeed[m/s],accel[m/s2],longitudinal accel[m/s2],normal_force[N],Cnp,Cny,Cmqp,Cmqy,Cp_from_nose[m],Cd,Cna,latitude,longitude,downrange[m],Fst[%],dynamic_pressure[Pa]
0.0001,0.0001,False,True,False,1.2252256827617731,9.80665,101325.0,15.0,0,0,0,4.89398037525355,0.6448995740365112,0.5076507600000001,0.01999949290060852,0.0,0.0,39.68397863789256,0.0,0.0,16.260481877399332,0.0,0.0,0.0,0.0,-2.0757090866339047,-2.0757090866339047,0.8411262708,0.3584865107,6.963637053,40.138624,139.984906,0.0,16.352224730290736,0.0
0.0011000000000000003,0.0011000000000000003,True,True,False,1.2252257037469738,9.806650000548471,101325.00214312735,15.000001159343192,0,0,0,4.893784127789049,0.6448953144016231,0.5081583600000005,0.019994421906693705,0.0,0.0,39.68397863789256,0.0,0.0,16.62135773498219,0.837572758296214,0.0,0.0,0.0,-2.0757090866339047,-2.0757090866339047,0.8411262708,0.3584865107,6.963637053,40.13862400001505,139.984906,1.961761556833119e-06,16.352579699864748,0.0
0.0021000000000000003,0.0021000000000000003,True,True,False,1.2252257715587098,9.806650002320815,101325.00906844524,15.000004905653327,0,0,0,4.893587880324548,0.6448910547667349,0.5086659600000009,0.01998935091277889,0.0,0.0,39.68397863789256,0.0,0.0,16.621631086750668,0.837539170764372,0.0,0.0,0.0,-2.0757090866339047,-2.0757090866339047,0.8411262708,0.3584865107,6.963637053,40.13862400005196,139.984906,6.772484616700052e-06,16.35293466943876,0.0
0.0030999999999999986,0.0030999999999999986,True,True,False,1.2252258862042444,9.80665000531721,101325.02077669569,15.00001123933139,0,0,0,4.893391632860046,0.6448867951318468,0.5091735600000012,0.019984279918864076,0.0,0.0,39.68397863789256,0.0,0.0,16.621904461668198,0.837505583337049,0.0,0.0,0.0,-2.0757090866339047,-2.0757090866339047,0.8411262708,0.3584865107,6.963637053,40.13862400011073,139.98490600000002,1.4432054932789993e-05,16.35328963901277,0.0
0.004099999999999998,0.004099999999999998,True,True,False,1.2252260476806003,9.806650009537588,101325.03726757491,15.000020160212404,0,0,0,4.893195385395545,0.6448825354969586,0.5096811600000016,0.01997920892494926,0.0,0.0,39.68397863789256,0.0,0.0,16.62217785973735,0.8374719960142336,0.0,0.0,0.0,-2.0757090866339047,-2.0757090866339047,0.8411262708,0.3584865107,6.963637053,40.13862400019136,139.98490600000005,2.494035825829213e-05,16.353644608586784,0.0
0.0051,0.0051,True,True,False,1.225226255984808,9.806650014981864,101325.0585407801,15.000031668131408,0,0,0,4.892999137931044,0.6448782758620705,0.510188760000002,0.019974137931034447,0.0,0.0,39.68397863789256,0.0,0.0,16.622451280960668,0.837438408795899,0.0,0.0,0.0,-2.0757090866339047,-2.0757090866339047,0.8411262708,0.3584865107,6.963637053,40.138624000293845,139.98490600000005,3.829728034639567e-05,16.3539995781608,0.0
0.006100000000000003,0.006100000000000003,True,True,False,1.2252265111138974,9.806650021649965,101325.08459600854,15.00004576292344,0,0,0,4.892802890466543,0.6448740162271823,0.5106963600000024,0.019969066937119632,0.0,0.0,39.68397863789256,0.0,0.0,16.622724725340724,0.8374048216820338,0.0,0.0,0.0,-2.0757090866339047,-2.0757090866339047,0.8411262708,0.3584865107,6.963637053,40.13862400041818,139.9849060000001,5.450270695028981e-05,16.354354547734808,0.0
0.007100000000000006,0.007100000000000006,True,True,False,1.2252268130649056,9.80665002954181,101325.11543295831,15.000062444423548,0,0,0,4.892606643002042,0.6448697565922942,0.5112039600000028,0.019963995943204818,0.0,0.0,39.68397863789256,0.0,0.0,16.62299819288008,0.8373712346726236,0.0,0.0,0.0,-2.0757090866339047,-2.0757090866339047,0.8411262708,0.3584865107,6.963637053,40.13862400056438,139.98490600000014,7.355652382316374e-05,16.35470951730882,0.0
0.008100000000000007,0.008100000000000007,True,True,False,1.2252271618348745,9.806650038657322,101325.15105132815,15.000081712466784,0,0,0,4.89241039553754,0.644865496957406,0.5117115600000032,0.019958924949290004,0.0,0.0,39.68397863789256,0.0,0.0,16.623271683581294,0.8373376477676331,0.0,0.0,0.0,-2.0757090866339047,-2.0757090866339047,0.8411262708,0.3584865107,6.963637053,40.13862400073243,139.98490600000017,9.545861671820666e-05,16.355064486882835,0.0
0.0091,0.0091,True,True,False,1.225227557420848,9.806650048996428,101325.19145081713,15.000103566888207,0,0,0,4.892214148073039,0.6448612373225179,0.5122191600000036,0.01995385395537519,0.0,0.0,39.68397863789256,0.0,0.0,16.62354519744693,0.8373040609670523,0.0,0.0,0.0,-2.0757090866339047,-2.0757090866339047,0.8411262708,0.3584865107,6.963637053,40.13862400092233,139.98490600000022,0.00012020887138860775,16.355419456456847,0.0
0.010099999999999994,0.010099999999999994,True,True,False,1.2252279998198743,9.806650060559038,101325.23663112492,15.000128007522882,0,0,0,4.892017900608538,0.6448569776876297,0.512726760000004,0.019948782961460375,0.0,0.0,39.68397863789256,0.0,0.0,16.62381873447955,0.8372704742708619,0.0,0.0,0.0,-2.0757090866339047,-2.0757090866339047,0.8411262708,0.3584865107,6.963637053,40.13862400113408,139.98490600000028,0.00014780717358755624,16.35577442603086,0.0
0.011099999999999988,0.011099999999999988,True,True,False,1.2252284890290075,9.80665007334508,101325.28659195184,15.000155034205878,0,0,0,4.891821653144037,0.6448527180527416,0.5132343600000043,0.01994371196754556,0.0,0.0,39.68397863789256,0.0,0.0,16.62409229468171,0.8372368876790457,0.0,0.0,0.0,-2.0757090866339047,-2.0757090866339047,0.8411262708,0.3584865107,6.963637053,40.13862400136769,139.98490600000034,0.0001782534090682413,16.35612939560487,0.0
0.012099999999999982,0.012099999999999982,True,True,False,1.2252290250453053,9.806650087354482,101325.34133299877,15.000184646772276,0,0,0,4.891625405679536,0.6448484584178534,0.5137419600000047,0.019938640973630746,0.0,0.0,39.68397863789256,0.0,0.0,16.624365878055983,0.8372033011915789,0.0,0.0,0.0,-2.0757090866339047,-2.0757090866339047,0.8411262708,0.3584865107,6.963637053,40.13862400162314,139.9849060000004,0.00021154746358385208,16.356484365178883,0.0
0.013099999999999976,0.013099999999999976,True,True,False,1.2252296078658294,9.806650102587156,101325.4008539671,15.000216845057155,0,0,0,4.891429158215034,0.6448441987829653,0.5142495600000051,0.01993356997971593,0.0,0.0,39.68397863789256,0.0,0.0,16.624639484604927,0.8371697148084483,0.0,0.0,0.0,-2.0757090866339047,-2.0757090866339047,0.8411262708,0.3584865107,6.963637053,40.138624001900446,139.98490600000045,0.0002476892228875778,16.356839334752898,0.0
0.01409999999999997,0.01409999999999997,True,True,False,1.225230237487644,9.806650119043033,101325.46515455871,15.000251628895604,0,0,0,4.891232910750533,0.6448399391480771,0.5147571600000055,0.019928498985801117,0.0,0.0,39.68397863789256,0.0,0.0,16.62491311433111,0.837136128529619,0.0,0.0,0.0,-2.0757090866339047,-2.0757090866339047,0.8411262708,0.3584865107,6.963637053,40.1386240021996,139.98490600000054,0.0002866785727326077,16.357194304326907,0.0
0.015099999999999964,0.015099999999999964,True,True,False,1.225230913907822,9.806650136722027,101325.5342344762,15.000288998122722,0,0,0,4.891036663286032,0.644835679513189,0.5152647600000059,0.019923427991886303,0.0,0.0,39.68397863789256,0.0,0.0,16.6251867672371,0.8371025423550913,0.0,0.0,0.0,-2.0757090866339047,-2.0757090866339047,0.8411262708,0.3584865107,6.963637053,40.1386240025206,139.9849060000006,0.000328515398872131,16.35754927390092,0.0
0.016099999999999958,0.016099999999999958,True,True,False,1.2252316371234346,9.806650155624066,101325.60809342256,15.000328952573607,0,0,0,4.890840415821531,0.6448314198783008,0.5157723600000063,0.01991835699797149,0.0,0.0,39.68397863789256,0.0,0.0,16.625460443325455,0.8370689562848366,0.0,0.0,0.0,-2.0757090866339047,-2.0757090866339047,0.8411262708,0.3584865107,6.963637053,40.13862400286345,139.98490600000068,0.00037319958705933686,16.357904243474934,0.0
0.017099999999999952,0.017099999999999952,True,True,False,1.2252324071315606,9.80665017574907,101325.68673110132,15.000371492083367,0,0,0,4.89064416835703,0.6448271602434127,0.5162799600000066,0.019913286004056674,0.0,0.0,39.68397863789256,0.0,0.0,16.62573414259874,0.8370353703188425,0.0,0.0,0.0,-2.0757090866339047,-2.0757090866339047,0.8411262708,0.3584865107,6.963637053,40.138624003228145,139.98490600000076,0.00042073102304741443,16.358259213048946,0.0
0.018099999999999946,0.018099999999999946,True,True,False,1.225233223929284,9.806650197096957,101325.77014721683,15.000416616487115,0,0,0,4.890447920892528,0.6448229006085245,0.516787560000007,0.01990821501014186,0.0,0.0,39.68397863789256,0.0,0.0,16.626007865059524,0.8370017844570805,0.0,0.0,0.0,-2.0757090866339047,-2.0757090866339047,0.8411262708,0.3584865107,6.963637053,40.13862400361469,139.98490600000088,0.00047110959258955305,16.358614182622958,0.0
0.01909999999999994,0.01909999999999994,True,True,False,1.2252340875136916,9.80665021966766,101325.85834147384,15.000464325619971,0,0,0,4.890251673428027,0.6448186409736364,0.5172951600000074,0.019903144016227045,0.0,0.0,39.68397863789256,0.0,0.0,16.62628161071038,0.8369681986995339,0.0,0.0,0.0,-2.0757090866339047,-2.0757090866339047,0.8411262708,0.3584865107,6.963637053,40.13862400402307,139.98490600000096,0.0005243351814389417,16.35896915219697,0.0
0.020099999999999934,0.020099999999999934,True,True,False,1.2252349978818722,9.806650243461087,101325.95131357742,15.000514619317059,0,0,0,4.890055425963526,0.6448143813387482,0.5178027600000078,0.01989807302231223,0.0,0.0,39.68397863789256,0.0,0.0,16.626555379553864,0.8369346130461848,0.0,0.0,0.0,-2.0757090866339047,-2.0757090866339047,0.8411262708,0.3584865107,6.963637053,40.1386240044533,139.98490600000108,0.0005804076753487697,16.35932412177098,0.0
0.021099999999999928,0.021099999999999928,True,True,False,1.225235955030922,9.80665026847717,101326.04906323353,15.000567497413513,0,0,0,4.889859178499025,0.6448101217038601,0.5183103600000082,0.019893002028397416,0.0,0.0,39.68397863789256,0.0,0.0,16.626829171592547,0.8369010274970154,0.0,0.0,0.0,-2.0757090866339047,-2.0757090866339047,0.8411262708,0.3584865107,6.963637053,40.13862400490537,139.9849060000012,0.000639326960072226,16.359679091344997,0.0
0.022099999999999922,0.022099999999999922,True,True,False,1.2252369589579404,9.806650294715828,101326.15159014858,15.000622959744469,0,0,0,4.889662931034524,0.644805862068972,0.5188179600000086,0.019887931034482602,0.0,0.0,39.68397863789256,0.0,0.0,16.627102986828994,0.8368674420520055,0.0,0.0,0.0,-2.0757090866339047,-2.0757090866339047,0.8411262708,0.3584865107,6.963637053,40.13862400537928,139.9849060000013,0.0007010929213625002,16.360034060919006,0.0
0.023099999999999916,0.023099999999999916,True,True,False,1.2252380096600308,9.806650322176976,101326.25889402951,15.00068100614507,0,0,0,4.8894666835700225,0.6448016024340838,0.519325560000009,0.019882860040567787,0.0,0.0,39.68397863789256,0.0,0.0,16.627376825265777,0.8368338567111335,0.0,0.0,0.0,-2.0757090866339047,-2.0757090866339047,0.8411262708,0.3584865107,6.963637053,40.13862400587503,139.98490600000142,0.0007657054449727813,16.360389030493018,0.0
0.02409999999999991,0.02409999999999991,True,True,False,1.2252391071343023,9.806650350860549,101326.37097458396,15.000741636450467,0,0,0,4.889270436105521,0.6447973427991956,0.5198331600000093,0.019877789046652973,0.0,0.0,39.68397863789256,0.0,0.0,16.62765068690547,0.8368002714743836,0.0,0.0,0.0,-2.0757090866339047,-2.0757090866339047,0.8411262708,0.3584865107,6.963637053,40.138624006392625,139.98490600000153,0.0008331644166562586,16.360744000067033,0.0
0.025099999999999904,0.025099999999999904,True,True,False,1.225240251377864,9.806650380766465,101326.48783151977,15.000804850495815,0,0,0,4.88907418864102,0.6447930831643075,0.5203407600000097,0.01987271805273816,0.0,0.0,39.68397863789256,0.0,0.0,16.62792457175063,0.8367666863417398,0.0,0.0,0.0,-2.0757090866339047,-2.0757090866339047,0.8411262708,0.3584865107,6.963637053,40.138624006932055,139.98490600000167,0.0009034697221661212,16.361098969641045,0.0
0.026099999999999898,0.026099999999999898,True,True,False,1.225241442387832,9.806650411894637,101326.60946454559,15.000870648116276,0,0,0,4.888877941176519,0.6447888235294194,0.5208483600000101,0.019867647058823344,0.0,0.0,39.68397863789256,0.0,0.0,16.628198479803828,0.8367331013131718,0.0,0.0,0.0,-2.0757090866339047,-2.0757090866339047,0.8411262708,0.3584865107,6.963637053,40.13862400749333,139.9849060000018,0.0009766212472555583,16.361453939215057,0.0
0.02709999999999989,0.02709999999999989,True,True,False,1.225242680161329,9.806650444245001,101326.73587337075,15.00093902914702,0,0,0,4.888681693712018,0.6447845638945312,0.5213559600000105,0.01986257606490853,0.0,0.0,39.68397863789256,0.0,0.0,16.628472411067648,0.8366995163886681,0.0,0.0,0.0,-2.0757090866339047,-2.0757090866339047,0.8411262708,0.3584865107,6.963637053,40.138624008076434,139.98490600000193,0.001052618877677759,16.36180890878907,0.0
0.028099999999999885,0.028099999999999885,True,True,False,1.2252439646954771,9.806650477817469,101326.86705770485,15.001009993423216,0,0,0,4.8884854462475165,0.6447803042596431,0.5218635600000109,0.019857505070993715,0.0,0.0,39.68397863789256,0.0,0.0,16.628746365544647,0.8366659315682101,0.0,0.0,0.0,-2.0757090866339047,-2.0757090866339047,0.8411262708,0.3584865107,6.963637053,40.138624008681376,139.9849060000021,0.0011314624991859128,16.36216387836308,0.0
0.02909999999999988,0.02909999999999988,True,True,False,1.225245295987405,9.806650512611961,101327.00301725816,15.001083540780048,0,0,0,4.888289198783015,0.6447760446247549,0.5223711600000113,0.0198524340770789,0.0,0.0,39.68397863789256,0.0,0.0,16.629020343237386,0.8366323468517747,0.0,0.0,0.0,-2.0757090866339047,-2.0757090866339047,0.8411262708,0.3584865107,6.963637053,40.13862400930816,139.98490600000224,0.0012131519975332084,16.362518847937096,0.0
0.030099999999999873,0.030099999999999873,True,True,False,1.2252466740342478,9.80665054862841,101327.14375174172,15.001159671052703,0,0,0,4.888092951318514,0.6447717849898668,0.5228787600000117,0.019847363083164087,0.0,0.0,39.68397863789256,0.0,0.0,16.629294344148462,0.8365987622393476,0.0,0.0,0.0,-2.0757090866339047,-2.0757090866339047,0.8411262708,0.3584865107,6.963637053,40.13862400995677,139.98490600000238,0.0012976872584728352,16.362873817511105,0.0
0.031099999999999867,0.031099999999999867,True,True,False,1.2252480988331378,9.80665058586673,101327.2892608666,15.001238384076368,0,0,0,4.887896703854013,0.6447675253549786,0.523386360000012,0.019842292089249272,0.0,0.0,39.68397863789256,0.0,0.0,16.629568368280434,0.8365651777309084,0.0,0.0,0.0,-2.0757090866339047,-2.0757090866339047,0.8411262708,0.3584865107,6.963637053,40.13862401062722,139.98490600000255,0.0013850681677579828,16.363228787085117,0.0
0.03209999999999989,0.03209999999999989,True,True,False,1.22524957038122,9.806650624326847,101327.43954434502,15.001319679686246,0,0,0,4.887700456389512,0.6447632657200905,0.5238939600000124,0.019837221095334458,0.0,0.0,39.68397863789256,0.0,0.0,16.629842415635867,0.8365315933264252,0.0,0.0,0.0,-2.0757090866339047,-2.0757090866339047,0.8411262708,0.3584865107,6.963637053,40.1386240113195,139.98490600000272,0.00147529461114184,16.363583756659132,0.0
0.03309999999999992,0.03309999999999992,True,True,False,1.225251088675638,9.806650664008677,101327.59460188937,15.00140355771754,0,0,0,4.8875042089250105,0.6447590060852023,0.5244015600000128,0.019832150101419643,0.0,0.0,39.68397863789256,0.0,0.0,16.630116486217343,0.8364980090258989,0.0,0.0,0.0,-2.0757090866339047,-2.0757090866339047,0.8411262708,0.3584865107,6.963637053,40.13862401203362,139.9849060000029,0.0015683664743775954,16.363938726233144,0.0
0.03409999999999995,0.03409999999999995,True,True,False,1.2252526537135424,9.806650704912151,101327.75443321282,15.001490018005459,0,0,0,4.887307961460509,0.6447547464503142,0.5249091600000132,0.01982707910750483,0.0,0.0,39.68397863789256,0.0,0.0,16.630390580027434,0.8364644248293018,0.0,0.0,0.0,-2.0757090866339047,-2.0757090866339047,0.8411262708,0.3584865107,6.963637053,40.13862401276956,139.98490600000306,0.0016642836432184394,16.364293695807156,0.0
0.03509999999999998,0.03509999999999998,True,True,False,1.2252542654920842,9.806650747037184,101327.91903802873,15.001579060385222,0,0,0,4.887111713996008,0.644750486815426,0.5254167600000136,0.019822008113590014,0.0,0.0,39.68397863789256,0.0,0.0,16.630664697068703,0.836430840736611,0.0,0.0,0.0,-2.0757090866339047,-2.0757090866339047,0.8411262708,0.3584865107,6.963637053,40.138624013527334,139.98490600000326,0.0017630460034175604,16.364648665381168,0.0
0.03610000000000001,0.03610000000000001,True,True,False,1.2252559240084238,9.806650790383694,101328.08841605154,15.001670684692048,0,0,0,4.886915466531507,0.6447462271805379,0.525924360000014,0.0198169371196752,0.0,0.0,39.68397863789256,0.0,0.0,16.63093883734373,0.8363972567478104,0.0,0.0,0.0,-2.0757090866339047,-2.0757090866339047,0.8411262708,0.3584865107,6.963637053,40.138624014306934,139.98490600000343,0.001864653440728148,16.36500363495518,0.0
0.037100000000000036,0.037100000000000036,True,True,False,1.2252576292597206,9.806650834951615,101328.26256699576,15.001764890761168,0,0,0,4.886719219067006,0.6447419675456497,0.5264319600000144,0.019811866125760386,0.0,0.0,39.68397863789256,0.0,0.0,16.631213000855098,0.8363636728628823,0.0,0.0,0.0,-2.0757090866339047,-2.0757090866339047,0.8411262708,0.3584865107,6.963637053,40.13862401510837,139.98490600000363,0.0019691058409033913,16.365358604529195,0.0
0.038100000000000064,0.038100000000000064,True,True,False,1.2252593812431427,9.806650880740863,101328.44149057682,15.001861678427815,0,0,0,4.8865229716025045,0.6447377079107616,0.5269395600000147,0.01980679513184557,0.0,0.0,39.68397863789256,0.0,0.0,16.63148718760537,0.8363300890818071,0.0,0.0,0.0,-2.0757090866339047,-2.0757090866339047,0.8411262708,0.3584865107,6.963637053,40.13862401593163,139.98490600000383,0.0020764030896964795,16.365713574103204,0.0
0.03910000000000009,0.03910000000000009,True,True,False,1.2252611799558593,9.806650927751358,101328.62518651046,15.001961047527232,0,0,0,4.886326724138003,0.6447334482758734,0.5274471600000151,0.019801724137930757,0.0,0.0,39.68397863789256,0.0,0.0,16.63176139759712,0.8362965054045643,0.0,0.0,0.0,-2.0757090866339047,-2.0757090866339047,0.8411262708,0.3584865107,6.963637053,40.13862401677672,139.98490600000403,0.002186545072860602,16.366068543677216,0.0
0.04010000000000012,0.04010000000000012,True,True,False,1.225263025395044,9.806650975983027,101328.81365451301,15.002062997894663,0,0,0,4.886130476673502,0.6447291886409853,0.5279547600000155,0.019796653144015942,0.0,0.0,39.68397863789256,0.0,0.0,16.632035630832934,0.8362629218311337,0.0,0.0,0.0,-2.0757090866339047,-2.0757090866339047,0.8411262708,0.3584865107,6.963637053,40.13862401764363,139.98490600000426,0.002299531676148947,16.36642351325123,0.0
0.04110000000000015,0.04110000000000015,True,True,False,1.2252649175578778,9.80665102543579,101329.0068943016,15.002167529365362,0,0,0,4.885934229209001,0.6447249290060971,0.5284623600000159,0.019791582150101128,0.0,0.0,39.68397863789256,0.0,0.0,16.632309887315387,0.8362293383614974,0.0,0.0,0.0,-2.0757090866339047,-2.0757090866339047,0.8411262708,0.3584865107,6.963637053,40.13862401853237,139.98490600000446,0.002415362785314704,16.366778482825243,0.0
0.04210000000000018,0.04210000000000018,True,True,False,1.2252668564415408,9.80665107610957,101329.2049055935,15.002274641774589,0,0,0,4.8857379817445,0.644720669371209,0.5289699600000163,0.019786511156186314,0.0,0.0,39.68397863789256,0.0,0.0,16.632584167047046,0.8361957549956358,0.0,0.0,0.0,-2.0757090866339047,-2.0757090866339047,0.8411262708,0.3584865107,6.963637053,40.13862401944293,139.98490600000468,0.002534038286111063,16.367133452399255,0.0
0.04310000000000021,0.04310000000000021,True,True,False,1.225268842043221,9.806651128004285,101329.40768810685,15.002384334957606,0,0,0,4.8855417342799985,0.6447164097363208,0.5294775600000167,0.0197814401622715,0.0,0.0,39.68397863789256,0.0,0.0,16.63285847003049,0.836162171733533,0.0,0.0,0.0,-2.0757090866339047,-2.0757090866339047,0.8411262708,0.3584865107,6.963637053,40.13862402037532,139.9849060000049,0.0026555580642912135,16.367488421973267,0.0
0.044100000000000236,0.044100000000000236,True,True,False,1.22527087436011,9.806651181119861,101329.61524156033,15.002496608749686,0,0,0,4.885345486815497,0.6447121501014327,0.529985160000017,0.019776369168356685,0.0,0.0,39.68397863789256,0.0,0.0,16.6331327962683,0.836128588575165,0.0,0.0,0.0,-2.0757090866339047,-2.0757090866339047,0.8411262708,0.3584865107,6.963637053,40.13862402132952,139.98490600000514,0.0027799220056083443,16.36784339154728,0.0
0.045100000000000265,0.045100000000000265,True,True,False,1.2252729533894013,9.806651235456219,101329.82756567291,15.002611462986106,0,0,0,4.885149239350996,0.6447078904665445,0.5304927600000174,0.01977129817444187,0.0,0.0,39.68397863789256,0.0,0.0,16.633407145763048,0.8360950055205141,0.0,0.0,0.0,-2.0757090866339047,-2.0757090866339047,0.8411262708,0.3584865107,6.963637053,40.13862402230555,139.98490600000537,0.002907129995815644,16.368198361121294,0.0
0.046100000000000294,0.046100000000000294,True,True,False,1.2252750791282958,9.806651291013281,101330.0446601644,15.002728897502148,0,0,0,4.884952991886495,0.6447036308316564,0.5310003600000178,0.019766227180527056,0.0,0.0,39.68397863789256,0.0,0.0,16.63368151851732,0.8360614225695615,0.0,0.0,0.0,-2.0757090866339047,-2.0757090866339047,0.8411262708,0.3584865107,6.963637053,40.1386240233034,139.98490600000562,0.0030371819206663014,16.368553330695303,0.0
0.04710000000000032,0.04710000000000032,True,True,False,1.2252772515739965,9.806651347790966,101330.26652475506,15.002848912133102,0,0,0,4.884756744421994,0.6446993711967682,0.5315079600000182,0.01976115618661224,0.0,0.0,39.68397863789256,0.0,0.0,16.633955914533686,0.8360278397222887,0.0,0.0,0.0,-2.0757090866339047,-2.0757090866339047,0.8411262708,0.3584865107,6.963637053,40.13862402432307,139.98490600000585,0.003170077665913507,16.368908300269315,0.0
0.04810000000000035,0.04810000000000035,True,True,False,1.225279470723711,9.8066514057892,101330.49315916568,15.002971506714262,0,0,0,4.8845604969574925,0.6446951115618801,0.5320155600000186,0.019756085192697427,0.0,0.0,39.68397863789256,0.0,0.0,16.634230333814727,0.8359942569786716,0.0,0.0,0.0,-2.0757090866339047,-2.0757090866339047,0.8411262708,0.3584865107,6.963637053,40.138624025364564,139.9849060000061,0.0033058171173104495,16.36926326984333,0.0
0.04910000000000038,0.04910000000000038,True,True,False,1.2252817365746513,9.806651465007906,101330.72456311762,15.003096681080931,0,0,0,4.884364249492991,0.6446908519269919,0.532523160000019,0.019751014198782613,0.0,0.0,39.68397863789256,0.0,0.0,16.63450477636303,0.8359606743387014,0.0,0.0,0.0,-2.0757090866339047,-2.0757090866339047,0.8411262708,0.3584865107,6.963637053,40.13862402642787,139.98490600000636,0.003444400160610318,16.369618239417342,0.0
0.05010000000000041,0.05010000000000041,True,True,False,1.2252840491240315,9.806651525447004,101330.96073633264,15.003224435068415,0,0,0,4.88416800202849,0.6446865922921038,0.5330307600000194,0.019745943204867798,0.0,0.0,39.68397863789256,0.0,0.0,16.63477924218116,0.835927091802354,0.0,0.0,0.0,-2.0757090866339047,-2.0757090866339047,0.8411262708,0.3584865107,6.963637053,40.13862402751299,139.98490600000662,0.0035858266815663015,16.369973208991354,0.0
0.05110000000000044,0.05110000000000044,True,True,False,1.2252864083690753,9.806651587106414,101331.2016785335,15.003354768512027,0,0,0,4.883971754563989,0.6446823326572156,0.5335383600000198,0.019740872210952984,0.0,0.0,39.68397863789256,0.0,0.0,16.635053731271714,0.8358935093696029,0.0,0.0,0.0,-2.0757090866339047,-2.0757090866339047,0.8411262708,0.3584865107,6.963637053,40.13862402861993,139.9849060000069,0.003730096565931589,16.370328178565366,0.0
0.052100000000000465,0.052100000000000465,True,True,False,1.2252888143070044,9.806651649986062,101331.44738944297,15.003487681247087,0,0,0,4.883775507099488,0.6446780730223275,0.5340459600000201,0.01973580121703817,0.0,0.0,39.68397863789256,0.0,0.0,16.63532824363726,0.8358599270404383,0.0,0.0,0.0,-2.0757090866339047,-2.0757090866339047,0.8411262708,0.3584865107,6.963637053,40.13862402974869,139.98490600000716,0.0038772096994593706,16.370683148139378,0.0
0.053100000000000494,0.053100000000000494,True,True,False,1.2252912669350482,9.806651714085865,101331.69786878479,15.00362317310892,0,0,0,4.8835792596349865,0.6446738133874393,0.5345535600000205,0.019730730223123355,0.0,0.0,39.68397863789256,0.0,0.0,16.63560277928038,0.8358263448148326,0.0,0.0,0.0,-2.0757090866339047,-2.0757090866339047,0.8411262708,0.3584865107,6.963637053,40.13862403089926,139.98490600000744,0.004027165967902835,16.371038117713393,0.0
0.05410000000000052,0.05410000000000052,True,True,False,1.2252937662504393,9.806651779405756,101331.953116283,15.003761243932859,0,0,0,4.883383012170485,0.6446695537525512,0.5350611600000209,0.01972565922920854,0.0,0.0,39.68397863789256,0.0,0.0,16.635877338203667,0.8357927626927806,0.0,0.0,0.0,-2.0757090866339047,-2.0757090866339047,0.8411262708,0.3584865107,6.963637053,40.13862403207164,139.98490600000773,0.00417996525701517,16.3713930872874,0.0
0.05510000000000055,0.05510000000000055,True,True,False,1.225296312250413,9.806651845945648,101332.21313166218,15.003901893554238,0,0,0,4.883186764705984,0.644665294117663,0.5355687600000213,0.019720588235293726,0.0,0.0,39.68397863789256,0.0,0.0,16.63615192040969,0.8357591806742493,0.0,0.0,0.0,-2.0757090866339047,-2.0757090866339047,0.8411262708,0.3584865107,6.963637053,40.13862403326584,139.984906000008,0.004335607452549567,16.371748056861414,0.0
0.05610000000000058,0.05610000000000058,True,True,False,1.2252989049322114,9.80665191370546,101332.47791464766,15.004045121808405,0,0,0,4.882990517241483,0.6446610344827749,0.5360763600000217,0.019715517241378912,0.0,0.0,39.68397863789256,0.0,0.0,16.636426525901033,0.8357255987592236,0.0,0.0,0.0,-2.0757090866339047,-2.0757090866339047,0.8411262708,0.3584865107,6.963637053,40.13862403448185,139.9849060000083,0.004494092440259214,16.37210302643543,0.0
0.05710000000000061,0.05710000000000061,True,True,False,1.2253015442930808,9.806651982685121,101332.7474649653,15.004190928530708,0,0,0,4.882794269776982,0.6446567748478867,0.5365839600000221,0.019710446247464097,0.0,0.0,39.68397863789256,0.0,0.0,16.63670115468028,0.8356920169476876,0.0,0.0,0.0,-2.0757090866339047,-2.0757090866339047,0.8411262708,0.3584865107,6.963637053,40.138624035719666,139.9849060000086,0.004655420105897302,16.37245799600944,0.0
0.05810000000000064,0.05810000000000064,True,True,False,1.2253042303302675,9.806652052884552,101333.0217823412,15.004339313556502,0,0,0,4.8825980223124805,0.6446525152129986,0.5370915600000224,0.019705375253549283,0.0,0.0,39.68397863789256,0.0,0.0,16.63697580675002,0.8356584352396164,0.0,0.0,0.0,-2.0757090866339047,-2.0757090866339047,0.8411262708,0.3584865107,6.963637053,40.138624036979294,139.98490600000892,0.004819590335217017,16.372812965583453,0.0
0.059100000000000666,0.059100000000000666,True,True,False,1.225306963041027,9.806652124303675,101333.30086650242,15.004490276721148,0,0,0,4.882401774847979,0.6446482555781105,0.5375991600000228,0.01970030425963447,0.0,0.0,39.68397863789256,0.0,0.0,16.637250482112833,0.8356248536349984,0.0,0.0,0.0,-2.0757090866339047,-2.0757090866339047,0.8411262708,0.3584865107,6.963637053,40.13862403826074,139.9849060000092,0.0049866030139715505,16.373167935157465,0.0
0.060100000000000695,0.060100000000000695,True,True,False,1.2253097424226174,9.806652196942414,101333.58471717648,15.004643817860016,0,0,0,4.882205527383478,0.6446439959432223,0.5381067600000232,0.019695233265719654,0.0,0.0,39.68397863789256,0.0,0.0,16.637525180771302,0.8355912721338097,0.0,0.0,0.0,-2.0757090866339047,-2.0757090866339047,0.8411262708,0.3584865107,6.963637053,40.138624039563986,139.98490600000952,0.005156458027914093,16.373522904731477,0.0
0.06110000000000072,0.06110000000000072,True,True,False,1.2253125684722976,9.806652270800681,101333.87333409107,15.004799936808478,0,0,0,4.882009279918977,0.6446397363083342,0.5386143600000236,0.01969016227180484,0.0,0.0,39.68397863789256,0.0,0.0,16.637799902728005,0.8355576907360351,0.0,0.0,0.0,-2.0757090866339047,-2.0757090866339047,0.8411262708,0.3584865107,6.963637053,40.13862404088904,139.98490600000986,0.005329155262797831,16.373877874305492,0.0
0.06210000000000075,0.06210000000000075,True,True,False,1.2253154411873353,9.80665234587841,101334.16671697488,15.004958633401914,0,0,0,4.881813032454476,0.644635476673446,0.539121960000024,0.019685091277890025,0.0,0.0,39.68397863789256,0.0,0.0,16.638074647985537,0.8355241094416437,0.0,0.0,0.0,-2.0757090866339047,-2.0757090866339047,0.8411262708,0.3584865107,6.963637053,40.138624042235904,139.98490600001017,0.005504694604375954,16.3742328438795,0.0
0.06310000000000078,0.06310000000000078,True,True,False,1.2253183605650004,9.806652422175523,101334.46486555706,15.005119907475713,0,0,0,4.8816167849899745,0.6446312170385579,0.5396295600000244,0.01968002028397521,0.0,0.0,39.68397863789256,0.0,0.0,16.638349416546482,0.8354905282506282,0.0,0.0,0.0,-2.0757090866339047,-2.0757090866339047,0.8411262708,0.3584865107,6.963637053,40.138624043604565,139.9849060000105,0.005683075938401649,16.374587813453513,0.0
0.06410000000000081,0.06410000000000081,True,True,False,1.225321326602566,9.806652499691928,101334.7677795671,15.005283758865263,0,0,0,4.881420537525473,0.6446269574036697,0.5401371600000248,0.019674949290060396,0.0,0.0,39.68397863789256,0.0,0.0,16.638624208413415,0.8354569471629683,0.0,0.0,0.0,-2.0757090866339047,-2.0757090866339047,0.8411262708,0.3584865107,6.963637053,40.13862404499504,139.98490600001082,0.005864299150628111,16.374942783027528,0.0
0.06510000000000084,0.06510000000000084,True,True,False,1.2253243392973114,9.806652578427565,101335.07545873533,15.005450187405964,0,0,0,4.881224290060972,0.6446226977687816,0.5406447600000251,0.019669878296145582,0.0,0.0,39.68397863789256,0.0,0.0,16.63889902358894,0.8354233661786381,0.0,0.0,0.0,-2.0757090866339047,-2.0757090866339047,0.8411262708,0.3584865107,6.963637053,40.138624046407315,139.98490600001116,0.006048364126808525,16.37529775260154,0.0
0.06610000000000087,0.06610000000000087,True,True,False,1.225327398646518,9.806652658382347,101335.38790279237,15.00561919293322,0,0,0,4.881028042596471,0.6446184381338934,0.5411523600000255,0.019664807302230768,0.0,0.0,39.68397863789256,0.0,0.0,16.639173862075626,0.8353897852976271,0.0,0.0,0.0,-2.0757090866339047,-2.0757090866339047,0.8411262708,0.3584865107,6.963637053,40.1386240478414,139.98490600001153,0.006235270752696083,16.375652722175552,0.0
0.0671000000000009,0.0671000000000009,True,True,False,1.2253305046474738,9.806652739556196,101335.70511146961,15.005790775282442,0,0,0,4.88083179513197,0.6446141784990053,0.5416599600000259,0.019659736308315953,0.0,0.0,39.68397863789256,0.0,0.0,16.639448723876075,0.8353562045199112,0.0,0.0,0.0,-2.0757090866339047,-2.0757090866339047,0.8411262708,0.3584865107,6.963637053,40.13862404929728,139.98490600001188,0.006425018914043971,16.376007691749564,0.0
0.06810000000000092,0.06810000000000092,True,True,False,1.2253336572974671,9.806652821949035,101336.02708449875,15.005964934289047,0,0,0,4.8806355476674685,0.6446099188641171,0.5421675600000263,0.01965466531440114,0.0,0.0,39.68397863789256,0.0,0.0,16.639723608992863,0.8353226238454674,0.0,0.0,0.0,-2.0757090866339047,-2.0757090866339047,0.8411262708,0.3584865107,6.963637053,40.138624050774965,139.98490600001222,0.0066176084966053815,16.376362661323576,0.0
0.06910000000000095,0.06910000000000095,True,True,False,1.2253368565937959,9.806652905560789,101336.35382161241,15.006141669788452,0,0,0,4.880439300202967,0.644605659229229,0.5426751600000267,0.019649594320486324,0.0,0.0,39.68397863789256,0.0,0.0,16.639998517428584,0.8352890432742859,0.0,0.0,0.0,-2.0757090866339047,-2.0757090866339047,0.8411262708,0.3584865107,6.963637053,40.138624052274444,139.9849060000126,0.0068130393861335,16.37671763089759,0.0
0.07010000000000098,0.07010000000000098,True,True,False,1.2253401025337554,9.806652990391376,101336.68532254323,15.006320981616092,0,0,0,4.880243052738466,0.6446013995943408,0.5431827600000271,0.01964452332657151,0.0,0.0,39.68397863789256,0.0,0.0,16.640273449185823,0.8352554628063418,0.0,0.0,0.0,-2.0757090866339047,-2.0757090866339047,0.8411262708,0.3584865107,6.963637053,40.13862405379573,139.98490600001296,0.007011311468381519,16.3770726004716,0.0
0.07110000000000101,0.07110000000000101,True,True,False,1.2253433951146524,9.806653076440718,101337.02158702501,15.006502869607397,0,0,0,4.880046805273965,0.6445971399594527,0.5436903600000275,0.019639452332656696,0.0,0.0,39.68397863789256,0.0,0.0,16.640548404267168,0.8352218824416191,0.0,0.0,0.0,-2.0757090866339047,-2.0757090866339047,0.8411262708,0.3584865107,6.963637053,40.13862405533881,139.98490600001332,0.007212424629102625,16.37742757004561,0.0
0.07210000000000104,0.07210000000000104,True,True,False,1.2253467343337905,9.806653163708743,101337.36261479148,15.006687333597808,0,0,0,4.879850557809464,0.6445928803245645,0.5441979600000278,0.01963438133874188,0.0,0.0,39.68397863789256,0.0,0.0,16.640823382675208,0.8351883021800921,0.0,0.0,0.0,-2.0757090866339047,-2.0757090866339047,0.8411262708,0.3584865107,6.963637053,40.13862405690369,139.9849060000137,0.0074163787540500094,16.377782539619627,0.0
0.07310000000000107,0.07310000000000107,True,True,False,1.2253501201884838,9.806653252195364,101337.70840557746,15.006874373422775,0,0,0,4.8796543103449626,0.6445886206896764,0.5447055600000282,0.019629310344827067,0.0,0.0,39.68397863789256,0.0,0.0,16.641098384412537,0.8351547220217457,0.0,0.0,0.0,-2.0757090866339047,-2.0757090866339047,0.8411262708,0.3584865107,6.963637053,40.138624058490365,139.9849060000141,0.0076231737289768585,16.37813750919364,0.0
0.0741000000000011,0.0741000000000011,True,True,False,1.225353552676047,9.806653341900518,101338.05895911806,15.007063988917746,0,0,0,4.879458062880461,0.6445843610547882,0.5452131600000286,0.019624239350912252,0.0,0.0,39.68397863789256,0.0,0.0,16.641373409481755,0.8351211419665558,0.0,0.0,0.0,-2.0757090866339047,-2.0757090866339047,0.8411262708,0.3584865107,6.963637053,40.13862406009884,139.9849060000145,0.007832809439636363,16.37849247876765,0.0
0.07510000000000112,0.07510000000000112,True,True,False,1.2253570317937987,9.806653432824108,101338.41427514883,15.007256179918182,0,0,0,4.87926181541596,0.6445801014199001,0.545720760000029,0.019619168356997438,0.0,0.0,39.68397863789256,0.0,0.0,16.641648457885424,0.8350875620145173,0.0,0.0,0.0,-2.0757090866339047,-2.0757090866339047,0.8411262708,0.3584865107,6.963637053,40.13862406172911,139.98490600001486,0.008045285771781716,16.378847448341663,0.0
0.07610000000000115,0.07610000000000115,True,True,False,1.2253605575390645,9.80665352496607,101338.77435340619,15.007450946259548,0,0,0,4.879065567951459,0.6445758417850119,0.5462283600000294,0.019614097363082623,0.0,0.0,39.68397863789256,0.0,0.0,16.64192352962616,0.8350539821656007,0.0,0.0,0.0,-2.0757090866339047,-2.0757090866339047,0.8411262708,0.3584865107,6.963637053,40.13862406338117,139.98490600001526,0.008260602611166103,16.379202417915675,0.0
0.07710000000000118,0.07710000000000118,True,True,False,1.2253641299091707,9.806653618326322,101339.13919362679,15.007648287777313,0,0,0,4.878869320486958,0.6445715821501238,0.5467359600000298,0.01960902636916781,0.0,0.0,39.68397863789256,0.0,0.0,16.64219862470654,0.8350204024197891,0.0,0.0,0.0,-2.0757090866339047,-2.0757090866339047,0.8411262708,0.3584865107,6.963637053,40.138624065055026,139.98490600001568,0.008478759843542712,16.37955738748969,0.0
0.07810000000000121,0.07810000000000121,True,True,False,1.22536774890145,9.806653712904785,101339.50879554804,15.007848204306955,0,0,0,4.878673073022457,0.6445673225152356,0.5472435600000302,0.019603955375252995,0.0,0.0,39.68397863789256,0.0,0.0,16.642473743129163,0.8349868227770614,0.0,0.0,0.0,-2.0757090866339047,-2.0757090866339047,0.8411262708,0.3584865107,6.963637053,40.13862406675068,139.98490600001608,0.008699757354664734,16.3799123570637,0.0
0.07910000000000124,0.07910000000000124,True,True,False,1.225371414513238,9.806653808701384,101339.88315890775,15.008050695683957,0,0,0,4.878476825557955,0.6445630628803475,0.5477511600000305,0.01959888438133818,0.0,0.0,39.68397863789256,0.0,0.0,16.642748884896626,0.8349532432373987,0.0,0.0,0.0,-2.0757090866339047,-2.0757090866339047,0.8411262708,0.3584865107,6.963637053,40.13862406846812,139.98490600001648,0.008923595030285357,16.38026732663771,0.0
0.08010000000000127,0.08010000000000127,True,True,False,1.2253751267418764,9.806653905716042,101340.26228344449,15.008255761743808,0,0,0,4.878280578093454,0.6445588032454593,0.5482587600000309,0.019593813387423366,0.0,0.0,39.68397863789256,0.0,0.0,16.643024050011512,0.8349196638007843,0.0,0.0,0.0,-2.0757090866339047,-2.0757090866339047,0.8411262708,0.3584865107,6.963637053,40.13862407020735,139.9849060000169,0.009150272756157773,16.380622296211726,0.0
0.0811000000000013,0.0811000000000013,True,True,False,1.2253788855847074,9.806654003948674,101340.64616889709,15.008463402322,0,0,0,4.878084330628953,0.6445545436105712,0.5487663600000313,0.01958874239350855,0.0,0.0,39.68397863789256,0.0,0.0,16.643299238476413,0.8348860844671941,0.0,0.0,0.0,-2.0757090866339047,-2.0757090866339047,0.8411262708,0.3584865107,6.963637053,40.13862407196837,139.98490600001733,0.009379790418035166,16.380977265785738,0.0
0.08210000000000132,0.08210000000000132,True,True,False,1.2253826910390813,9.80665410339921,101341.03481500519,15.008673617254038,0,0,0,4.877888083164452,0.644550283975683,0.5492739600000317,0.019583671399593737,0.0,0.0,39.68397863789256,0.0,0.0,16.64357445029393,0.8348525052366149,0.0,0.0,0.0,-2.0757090866339047,-2.0757090866339047,0.8411262708,0.3584865107,6.963637053,40.13862407375118,139.98490600001776,0.00961214790167073,16.38133223535975,0.0
0.08310000000000135,0.08310000000000135,True,True,False,1.2253865431023498,9.806654204067566,101341.42822150882,15.008886406375426,0,0,0,4.877691835699951,0.6445460243407949,0.5497815600000321,0.019578600405678923,0.0,0.0,39.68397863789256,0.0,0.0,16.64384968546665,0.8348189261090244,0.0,0.0,0.0,-2.0757090866339047,-2.0757090866339047,0.8411262708,0.3584865107,6.963637053,40.13862407555578,139.9849060000182,0.009847345092817655,16.381687204933762,0.0
0.08410000000000138,0.08410000000000138,True,True,False,1.2253904417718713,9.80665430595367,101341.82638814871,15.00910176952168,0,0,0,4.877495588235449,0.6445417647059067,0.5502891600000325,0.019573529411764108,0.0,0.0,39.68397863789256,0.0,0.0,16.64412494399717,0.8347853470844067,0.0,0.0,0.0,-2.0757090866339047,-2.0757090866339047,0.8411262708,0.3584865107,6.963637053,40.13862407738217,139.98490600001864,0.010085381877229129,16.382042174507774,0.0
0.08510000000000141,0.08510000000000141,True,True,False,1.2253943870450046,9.806654409057444,101342.22931466589,15.009319706528315,0,0,0,4.877299340770948,0.6445375050710186,0.5507967600000329,0.019568458417849294,0.0,0.0,39.68397863789256,0.0,0.0,16.644400225888095,0.8347517681627377,0.0,0.0,0.0,-2.0757090866339047,-2.0757090866339047,0.8411262708,0.3584865107,6.963637053,40.13862407923034,139.9849060000191,0.010326258140658335,16.38239714408179,0.0
0.08610000000000144,0.08610000000000144,True,True,False,1.2253983789191167,9.806654513378799,101342.63700080226,15.00954021723086,0,0,0,4.877103093306447,0.6445332454361304,0.5513043600000332,0.01956338742393448,0.0,0.0,39.68397863789256,0.0,0.0,16.644675531142,0.8347181893440041,0.0,0.0,0.0,-2.0757090866339047,-2.0757090866339047,0.8411262708,0.3584865107,6.963637053,40.138624081100296,139.98490600001955,0.01056997376885847,16.382752113655798,0.0
0.08710000000000147,0.08710000000000147,True,True,False,1.225402417391575,9.806654618917673,101343.04944629992,15.009763301464844,0,0,0,4.876906845841946,0.6445289858012423,0.5518119600000336,0.019558316430019665,0.0,0.0,39.68397863789256,0.0,0.0,16.6449508597615,0.8346846106281749,0.0,0.0,0.0,-2.0757090866339047,-2.0757090866339047,0.8411262708,0.3584865107,6.963637053,40.13862408299204,139.98490600002,0.01081652864758272,16.38310708322981,0.0
0.0881000000000015,0.0881000000000015,True,True,False,1.2254065024597536,9.806654725673978,101343.4666509018,15.009988959065804,0,0,0,4.876710598377445,0.6445247261663541,0.552319560000034,0.01955324543610485,0.0,0.0,39.68397863789256,0.0,0.0,16.645226211749172,0.8346510320152456,0.0,0.0,0.0,-2.0757090866339047,-2.0757090866339047,0.8411262708,0.3584865107,6.963637053,40.138624084905565,139.98490600002046,0.011065922662584275,16.383462052803825,0.0
0.08910000000000153,0.08910000000000153,True,True,False,1.2254106341210296,9.806654833647645,101343.88861435122,15.010217189869286,0,0,0,4.876514350912943,0.644520466531466,0.5528271600000344,0.019548174442190036,0.0,0.0,39.68397863789256,0.0,0.0,16.645501587107635,0.8346174535051905,0.0,0.0,0.0,-2.0757090866339047,-2.0757090866339047,0.8411262708,0.3584865107,6.963637053,40.13862408684088,139.9849060000209,0.011318155699616321,16.383817022377837,0.0
0.09010000000000155,0.09010000000000155,True,True,False,1.2254148123727855,9.806654942838586,101344.31533639217,15.010447993710837,0,0,0,4.876318103448442,0.6445162068965778,0.5533347600000348,0.01954310344827522,0.0,0.0,39.68397863789256,0.0,0.0,16.64577698583947,0.8345838750979908,0.0,0.0,0.0,-2.0757090866339047,-2.0757090866339047,0.8411262708,0.3584865107,6.963637053,40.13862408879797,139.9849060000214,0.011573227644432051,16.38417199195185,0.0
0.09110000000000158,0.09110000000000158,True,True,False,1.225419037212406,9.80665505324673,101344.74681676907,15.010681370426013,0,0,0,4.876121855983941,0.6445119472616897,0.5538423600000352,0.019538032454360407,0.0,0.0,39.68397863789256,0.0,0.0,16.64605240794728,0.8345502967936254,0.0,0.0,0.0,-2.0757090866339047,-2.0757090866339047,0.8411262708,0.3584865107,6.963637053,40.138624090776844,139.98490600002188,0.011831138382784654,16.38452696152586,0.0
0.09210000000000161,0.09210000000000161,True,True,False,1.225423308637282,9.806655164871996,101345.183055227,15.010917319850375,0,0,0,4.87592560851944,0.6445076876268016,0.5543499600000356,0.019532961460445593,0.0,0.0,39.68397863789256,0.0,0.0,16.646327853433657,0.8345167185920825,0.0,0.0,0.0,-2.0757090866339047,-2.0757090866339047,0.8411262708,0.3584865107,6.963637053,40.1386240927775,139.98490600002236,0.01209188780042732,16.384881931099873,0.0
0.09310000000000164,0.09310000000000164,True,True,False,1.2254276266448072,9.806655277714308,101345.62405151154,15.011155841819491,0,0,0,4.875729361054939,0.6445034279919134,0.5548575600000359,0.01952789046653078,0.0,0.0,39.68397863789256,0.0,0.0,16.646603322301203,0.834483140493333,0.0,0.0,0.0,-2.0757090866339047,-2.0757090866339047,0.8411262708,0.3584865107,6.963637053,40.13862409479993,139.98490600002285,0.012355475783113237,16.38523690067389,0.0
0.09410000000000167,0.09410000000000167,True,True,False,1.225431991232378,9.806655391773582,101346.06980536862,15.011396936168934,0,0,0,4.875533113590437,0.6444991683570253,0.5553651600000363,0.019522819472615964,0.0,0.0,39.68397863789256,0.0,0.0,16.64687881455252,0.8344495624973671,0.0,0.0,0.0,-2.0757090866339047,-2.0757090866339047,0.8411262708,0.3584865107,6.963637053,40.13862409684414,139.98490600002333,0.012621902216595591,16.385591870247897,0.0
0.0951000000000017,0.0951000000000017,True,True,False,1.2254364023973976,9.806655507049754,101346.52031654507,15.011640602734284,0,0,0,4.875336866125936,0.6444949087221371,0.5558727600000367,0.01951774847870115,0.0,0.0,39.68397863789256,0.0,0.0,16.647154330190205,0.8344159846041528,0.0,0.0,0.0,-2.0757090866339047,-2.0757090866339047,0.8411262708,0.3584865107,6.963637053,40.13862409891013,139.98490600002384,0.012891166986627572,16.38594683982191,0.0
0.09610000000000173,0.09610000000000173,True,True,False,1.225440860137273,9.806655623542733,101346.97558478806,15.011886841351126,0,0,0,4.875140618661435,0.644490649087249,0.5563803600000371,0.019512677484786335,0.0,0.0,39.68397863789256,0.0,0.0,16.647429869216854,0.8343824068136829,0.0,0.0,0.0,-2.0757090866339047,-2.0757090866339047,0.8411262708,0.3584865107,6.963637053,40.138624100997895,139.98490600002432,0.013163269978962375,16.386301809395924,0.0
0.09710000000000175,0.09710000000000175,True,True,False,1.2254453644494139,9.806655741252449,101347.43560984536,15.012135651855052,0,0,0,4.874944371196934,0.6444863894523608,0.5568879600000375,0.01950760649087152,0.0,0.0,39.68397863789256,0.0,0.0,16.64770543163507,0.8343488291259371,0.0,0.0,0.0,-2.0757090866339047,-2.0757090866339047,0.8411262708,0.3584865107,6.963637053,40.13862410310744,139.98490600002484,0.013438211079353184,16.386656778969936,0.0
0.09810000000000178,0.09810000000000178,True,True,False,1.2254499153312353,9.80665586017882,101347.9003914653,15.01238703408166,0,0,0,4.874748123732433,0.6444821298174727,0.5573955600000379,0.019502535496956706,0.0,0.0,39.68397863789256,0.0,0.0,16.647981017447457,0.8343152515408896,0.0,0.0,0.0,-2.0757090866339047,-2.0757090866339047,0.8411262708,0.3584865107,6.963637053,40.138624105238755,139.98490600002535,0.01371599017355319,16.387011748543948,0.0
0.09910000000000181,0.09910000000000181,True,True,False,1.2254545127801553,9.806655980321771,101348.36992939666,15.012640987866554,0,0,0,4.874551876267931,0.6444778701825845,0.5579031600000383,0.019497464503041892,0.0,0.0,39.68397863789256,0.0,0.0,16.64825662665661,0.8342816740585297,0.0,0.0,0.0,-2.0757090866339047,-2.0757090866339047,0.8411262708,0.3584865107,6.963637053,40.13862410739185,139.9849060000259,0.01399660714731558,16.38736671811796,0.0
0.10000000000000184,0.10000000000000184,True,True,False,1.2254586902969213,9.806656089490534,101348.79657997396,15.012871744819424,0,0,0,4.87437525354988,0.6444740365111852,0.5583600000000386,0.01949290060851856,0.0,0.0,39.68397863789256,0.0,0.0,16.64850469495123,0.8342514544121844,0.0,0.0,0.0,-2.0757090866339047,-2.0757090866339047,0.8411262708,0.3584865107,6.963637053,40.13862410934824,139.98490600002634,0.014251588716302582,16.38768619073457,0.0
